City_ID,City,Lat,Lng,Max Temp,Humidity,Cloudiness,Wind Speed,Country,Date
0,adamstown,-25.066,-130.1015,67.59,76,91,16.87,PN,1690197234
1,puerto ayora,-0.7393,-90.3518,76.1,85,51,7.74,EC,1690197274
2,vorgashor,67.5833,63.95,71.91,50,46,5.53,RU,1690197274
3,kodiak,57.79,-152.4072,47.71,93,0,4.61,US,1690197274
4,port-aux-francais,-49.35,70.2167,41.72,91,100,32.08,TF,1690197234
5,kapuskasing,49.4169,-82.4331,50.09,93,20,2.3,CA,1690197274
6,invercargill,-46.4,168.35,47.23,91,97,5.91,NZ,1690197274
7,ushuaia,-54.8,-68.3,26.26,80,0,3.44,AR,1690197242
8,iskateley,67.6803,53.1512,68.45,63,96,12.82,RU,1690197274
9,hermanus,-34.4187,19.2345,57.79,55,8,7.76,ZA,1690197275
10,jamestown,42.097,-79.2353,65.79,99,40,5.75,US,1690197220
11,enewetak,11.3474,162.3373,83.52,75,94,16.04,MH,1690197275
12,acapulco de juarez,16.8634,-99.8901,78.62,78,40,4.61,MX,1690197275
13,bethel,41.3712,-73.414,70.92,85,0,0.0,US,1690197275
14,ribeira grande,38.5167,-28.7,75.78,83,75,3.44,PT,1690197275
15,luza,60.6308,47.2512,61.61,91,99,7.49,RU,1690197275
16,kendari,-3.945,122.4989,75.22,86,49,5.97,ID,1690197275
17,erseke,40.3378,20.6789,89.6,27,0,7.4,AL,1690197275
18,alofi,-19.0595,-169.9187,73.29,73,40,6.91,NU,1690197276
19,grytviken,-54.2811,-36.5092,21.04,76,48,11.72,GS,1690197276
20,georgetown,5.4112,100.3354,89.55,66,20,6.91,MY,1690197276
21,snyder,32.7179,-100.9176,79.32,43,0,4.61,US,1690197276
22,saipan,15.1355,145.701,81.3,100,20,5.75,MP,1690197150
23,suva,-18.1416,178.4415,72.88,88,75,0.0,FJ,1690197276
24,rizokarpaso,35.6,34.375,86.72,63,0,8.14,CY,1690197276
25,kiunga,-6.1219,141.2906,72.0,97,99,1.92,PG,1690197278
26,bejar,40.3864,-5.7634,78.58,34,70,8.12,ES,1690197278
27,codrington,-38.2667,141.9667,52.56,82,100,6.6,AU,1690197278
28,east london,-33.0153,27.9116,63.54,45,0,17.27,ZA,1690197278
29,yaren,-0.5472,166.916,83.21,74,4,7.27,NR,1690197278
30,hawaiian paradise park,19.5933,-154.9731,74.03,96,100,1.01,US,1690197078
31,tiksi,71.6872,128.8694,46.98,64,10,0.45,RU,1690197278
32,margaret river,-33.95,115.0667,60.87,67,39,16.87,AU,1690197278
33,yellowknife,62.456,-114.3525,60.57,77,75,5.75,CA,1690197278
34,salalah,17.0151,54.0924,78.89,94,100,8.05,OM,1690197279
35,mount gambier,-37.8333,140.7667,52.07,77,100,3.13,AU,1690197279
36,dynow,49.8151,22.2339,85.82,50,50,14.85,PL,1690197279
37,luba,3.4568,8.5547,76.89,94,100,10.29,GQ,1690197279
38,peniche,39.3558,-9.3811,73.29,73,64,13.27,PT,1690197279
39,rikaze,29.25,88.8833,58.93,68,99,7.25,CN,1690197279
40,ilulissat,69.2167,-51.1,44.62,93,75,3.44,GL,1690197279
41,kiuruvesi,63.65,26.6167,55.92,95,100,0.87,FI,1690197279
42,bredasdorp,-34.5322,20.0403,57.24,51,5,8.68,ZA,1690197279
43,menongue,-14.6585,17.691,84.02,10,9,8.05,AO,1690197279
44,arraial do cabo,-22.9661,-42.0278,71.46,83,0,11.5,BR,1690197280
45,general villegas,-35.0328,-63.0125,40.78,62,100,8.9,AR,1690197193
46,puerto natales,-51.7236,-72.4875,19.67,95,92,2.24,CL,1690197280
47,remire-montjoly,4.9167,-52.2667,77.04,94,0,0.0,GF,1690197280
48,vilyuchinsk,52.9306,158.4028,61.07,85,9,10.25,RU,1690197280
49,great falls,47.5002,-111.3008,73.42,46,0,6.91,US,1690197043
50,wailua homesteads,22.0669,-159.378,79.59,89,100,18.41,US,1690197280
51,matoury,4.8483,-52.3317,76.96,94,0,0.0,GF,1690197280
52,cidade velha,14.9167,-23.6167,82.87,65,75,14.97,CV,1690197280
53,cururupu,-1.8283,-44.8683,79.84,77,6,1.72,BR,1690197280
54,stanley,54.868,-1.6985,58.78,77,75,11.5,GB,1690197280
55,le vauclin,14.5452,-60.8388,84.25,79,75,14.97,MQ,1690197281
56,okhotsk,59.3833,143.3,58.19,85,7,4.16,RU,1690197281
57,west island,-12.1568,96.8225,78.78,78,75,14.97,CC,1690197281
58,nar'yan-mar,67.6713,53.087,68.41,63,96,12.86,RU,1690197281
59,waitangi,-43.9535,-176.5597,52.83,97,100,1.01,NZ,1690197281
60,avarua,-21.2078,-159.775,75.25,78,6,8.05,CK,1690197281
61,haiku-pauwela,20.9219,-156.3051,80.04,82,75,16.11,US,1690197281
62,edinburgh of the seven seas,-37.0676,-12.3116,57.18,76,83,31.5,SH,1690197282
63,dek'emhare,15.07,39.0475,77.77,40,100,10.22,ER,1690197282
64,coari,-4.085,-63.1414,71.17,68,14,2.59,BR,1690197282
65,fort bragg,35.139,-79.006,73.81,97,75,1.99,US,1690197282
66,albany,42.6001,-73.9662,66.72,92,15,1.99,US,1690197282
67,udachny,66.4167,112.4,62.46,55,92,10.09,RU,1690197282
68,ulladulla,-35.35,150.4667,48.38,80,1,4.54,AU,1690197282
69,longyearbyen,78.2186,15.6401,51.64,71,20,10.36,SJ,1690197282
70,thanh pho uong bi,21.0333,106.7833,89.58,76,39,5.79,VN,1690197282
71,port mathurin,-19.6833,63.4167,72.27,81,38,20.33,MU,1690197282
72,san martin,-33.081,-68.4681,43.34,60,0,9.17,AR,1690197283
73,anadyr,64.75,177.4833,50.5,87,75,11.18,RU,1690197283
74,salinopolis,-0.6136,-47.3561,78.89,84,4,5.79,BR,1690197283
75,thompson,55.7435,-97.8558,53.76,82,75,4.61,CA,1690197283
76,mapimi,25.8167,-103.85,71.26,59,0,2.84,MX,1690197283
77,lipova,46.0833,21.7,94.14,34,2,8.63,RO,1690197283
78,papatowai,-46.5619,169.4708,47.77,92,94,4.09,NZ,1690197283
79,canton,23.1167,113.25,94.95,55,93,6.98,CN,1690197080
80,berezovyy,51.6667,135.7,74.1,65,98,0.38,RU,1690197283
81,ndibene dahra,15.3338,-15.4766,87.08,60,97,2.86,SN,1690197283
82,vadso,70.0744,29.7487,50.16,93,75,14.97,NO,1690197283
83,bozkurt,41.9577,34.0109,77.43,67,7,6.42,TR,1690197284
84,kataba,13.9833,44.3833,78.58,39,99,6.26,YE,1690197284
85,altamira,-3.2033,-52.2064,71.69,100,0,1.14,BR,1690197190
86,lihue,21.9789,-159.3672,80.19,85,100,18.41,US,1690197284
87,tindouf,27.6711,-8.1474,103.8,13,42,11.43,DZ,1690197284
88,swakopmund,-22.6833,14.5333,56.98,77,13,5.99,NA,1690197284
89,kovdor,67.5662,30.4758,51.1,85,100,5.01,RU,1690197087
90,mount darwin,-16.7725,31.5838,86.2,18,0,1.86,ZW,1690197284
91,petropavlovsk-kamchatsky,53.0452,158.6483,59.59,77,20,6.71,RU,1690197284
92,tsiombe,-25.3,45.4833,82.85,32,0,9.15,MG,1690197284
93,les avirons,-21.2418,55.3394,75.25,73,0,23.02,RE,1690197284
94,al qaryatayn,34.2296,37.2407,95.61,20,0,22.95,SY,1690197285
95,den burg,53.0542,4.7972,66.16,80,100,12.66,NL,1690197285
96,ressano garcia,-25.442,31.9913,78.13,46,53,11.99,MZ,1690197285
97,cove,7.221,2.3402,74.14,94,100,4.16,BJ,1690197285
98,grand island,40.925,-98.342,72.19,88,67,5.01,US,1690197285
99,labuan,5.2767,115.2417,82.76,78,20,2.3,MY,1690197285
100,quellon,-43.1167,-73.6167,43.05,87,100,5.75,CL,1690197285
101,aasiaat,68.7098,-52.8699,38.14,98,100,5.44,GL,1690197285
102,aswan,24.0934,32.907,109.45,8,23,11.59,EG,1690197285
103,nova sintra,14.8667,-24.7167,74.12,74,68,8.21,CV,1690197285
104,bikenibeu village,1.3673,173.1241,78.76,94,100,0.0,KI,1690197286
105,calapan,13.4117,121.1803,85.1,79,100,8.9,PH,1690197286
106,mary,37.0,62.5,107.13,7,0,17.52,TM,1690197286
107,punta arenas,-53.15,-70.9167,26.24,86,49,3.22,CL,1690197135
108,faya-largeau,17.9257,19.1043,107.91,7,4,13.04,TD,1690197286
109,ixtapa,20.7,-105.2,79.23,86,100,1.99,MX,1690197286
110,college,64.8569,-147.8028,67.98,74,20,4.61,US,1690197286
111,bengkulu,-3.8004,102.2655,79.18,79,93,4.34,ID,1690197286
112,dudinka,69.4058,86.1778,70.63,49,85,10.74,RU,1690197286
113,tottori,35.5,134.2333,87.87,58,20,9.22,JP,1690197287
114,port elizabeth,-33.918,25.5701,63.1,48,20,17.27,ZA,1690197287
115,cabo san lucas,22.8909,-109.9124,81.61,79,76,8.99,MX,1690197072
116,greenville,35.6127,-77.3663,73.56,100,100,0.0,US,1690197268
117,saryaghash,41.45,69.1667,102.13,10,1,4.25,KZ,1690197287
118,qaqortoq,60.7167,-46.0333,42.67,92,96,6.98,GL,1690197287
119,dhidhdhoo,6.8833,73.1,82.98,80,98,14.41,MV,1690197288
120,axim,4.8699,-2.2405,79.23,79,100,7.63,GH,1690197288
121,rancho palos verdes,33.7445,-118.387,69.48,94,3,1.01,US,1690197288
122,prince george,53.9166,-122.753,56.64,90,100,5.75,CA,1690197288
123,keshod,21.3,70.25,83.86,79,93,18.41,IN,1690197288
124,uturoa,-16.7333,-151.4333,78.89,84,90,13.35,PF,1690197288
125,port lincoln,-34.7333,135.8667,55.44,79,68,6.38,AU,1690197288
126,strezhevoy,60.7333,77.5889,75.94,47,99,5.21,RU,1690197288
127,port alfred,-33.5906,26.891,62.19,58,13,7.0,ZA,1690197289
128,bayanhongor,46.7167,100.1167,70.29,27,72,9.62,MN,1690197289
129,bom jesus,-9.0744,-44.3586,74.25,59,7,8.25,BR,1690197289
130,olonkinbyen,70.9221,-8.7187,40.33,94,100,12.91,SJ,1690197289
131,pariaman,-0.619,100.12,84.25,82,75,3.24,ID,1690197289
132,queenstown,-31.8976,26.8753,53.17,40,26,6.2,ZA,1690197289
133,mizdah,31.4451,12.9801,105.48,9,0,11.52,LY,1690197289
134,bryan,30.6744,-96.37,75.09,88,0,0.0,US,1690197289
135,lushun,38.8,121.2667,77.22,81,1,9.26,CN,1690197290
136,iqaluit,63.7506,-68.5145,44.33,81,20,4.0,CA,1690197290
137,yangshuo,24.7808,110.4897,85.26,81,93,2.82,CN,1690197290
138,ashkelon,31.6693,34.5715,103.78,53,0,12.24,IL,1690197290
139,hasaki,35.7333,140.8333,80.31,83,3,10.89,JP,1690197290
140,puerto aysen,-45.4,-72.7,31.15,95,100,3.31,CL,1690197290
141,pisco,-13.7,-76.2167,60.85,82,40,10.36,PE,1690197290
142,isangel,-19.55,169.2667,70.25,74,100,10.25,VU,1690197290
143,viedma,-40.8135,-62.9967,39.69,73,100,6.29,AR,1690197290
144,carnarvon,-24.8667,113.6333,66.61,53,42,12.46,AU,1690197291
145,pyin oo lwin,22.0333,96.4667,78.01,82,96,0.47,MM,1690197291
146,i-n-salah,27.1935,2.4607,111.61,6,0,13.18,DZ,1690197291
147,berlin,52.5244,13.4105,84.06,45,0,16.11,DE,1690197007
148,bongor,10.2806,15.3722,92.5,43,27,5.66,TD,1690197291
149,praia,14.9215,-23.5087,82.94,65,75,14.97,CV,1690197245
150,julio de castilhos,-29.2269,-53.6817,59.49,96,77,6.17,BR,1690197291
151,palmer,42.1584,-72.3287,71.38,87,0,0.0,US,1690197291
152,nova vicosa,-17.8919,-39.3719,72.34,80,6,8.86,BR,1690197291
153,klyuchi,52.2667,79.1667,94.33,16,68,16.96,RU,1690197291
154,praia da vitoria,38.7333,-27.0667,79.05,69,40,6.26,PT,1690197292
155,palmas,-10.2128,-48.3603,80.47,44,0,20.71,BR,1690197224
156,talnakh,69.4865,88.3972,70.21,48,100,7.4,RU,1690197292
157,midvagur,62.0511,-7.1939,49.03,76,75,8.05,FO,1690197292
158,mili,6.0815,171.735,82.9,79,100,15.77,MH,1690197292
159,an nuhud,12.7,28.4333,97.09,28,19,13.06,SD,1690197292
160,goure,13.9835,10.2704,91.44,39,61,6.51,NE,1690197292
161,leh,34.1667,77.5833,72.41,30,74,7.67,IN,1690197292
162,hammerfest,70.6634,23.6821,55.85,71,40,14.97,NO,1690197293
163,mongo,12.1844,18.693,92.28,46,41,4.0,TD,1690197293
164,morehead city,34.7229,-76.726,76.01,91,75,3.0,US,1690197293
165,blackmans bay,-43.0167,147.3167,51.93,75,94,8.61,AU,1690197293
166,seaside,36.6111,-121.8516,57.36,92,100,5.75,US,1690197293
167,shakawe,-18.3667,21.85,86.38,11,18,5.21,BW,1690197293
168,tadmur,34.5608,38.2805,103.05,12,0,19.17,SY,1690197293
169,sept-iles,50.2001,-66.3821,64.4,99,75,1.14,CA,1690197293
170,nouadhibou,20.931,-17.0347,82.38,54,14,20.71,MR,1690197293
171,marsabit,2.3284,37.9899,77.61,41,56,16.98,KE,1690197293
172,kingston,17.997,-76.7936,81.55,80,20,5.75,JM,1690197075
173,lagoa,39.05,-27.9833,72.19,84,100,9.19,PT,1690197294
174,isafjordur,66.0755,-23.124,51.84,93,100,4.61,IS,1690197294
175,atafu village,-8.5421,-172.5159,83.95,73,9,16.64,TK,1690197294
176,choibalsan,48.0667,114.5,64.44,79,81,12.15,MN,1690197294
177,komarichi,52.4151,34.7905,73.02,48,89,13.56,RU,1690197294
178,happy valley-goose bay,53.3168,-60.3315,68.31,83,40,5.75,CA,1690197294
179,mingguang,32.7802,117.9638,85.46,72,50,7.29,CN,1690197294
180,gaiman,-43.2897,-65.4929,38.7,67,100,10.45,AR,1690197294
181,mugia,43.1041,-9.2179,65.91,76,72,8.19,ES,1690197294
182,sainte-adresse,49.5089,0.0845,63.66,94,100,10.36,FR,1690197294
183,lincoln city,44.9582,-124.0179,59.97,94,46,3.0,US,1690197295
184,utrik,11.2278,169.8474,83.1,74,43,20.07,MH,1690197295
185,magdagachi,53.45,125.8,62.37,98,100,4.56,RU,1690197295
186,la sarre,48.8002,-79.1996,58.82,99,99,4.72,CA,1690197295
187,colonia,50.9333,6.95,74.05,65,20,5.75,DE,1690197295
188,afaahiti,-17.75,-149.2833,76.87,85,16,18.03,PF,1690197295
189,ust-nera,64.5667,143.2,61.18,68,100,6.6,RU,1690197295
190,sainyabuli,19.25,101.75,83.88,71,100,2.06,LA,1690197295
191,badger,64.8,-147.5333,67.91,79,0,4.61,US,1690197295
192,tondano,1.3038,124.9112,77.09,90,49,6.11,ID,1690197295
193,cockburn town,21.4612,-71.1419,84.16,70,40,9.22,TC,1690197187
194,fortuna,40.5982,-124.1573,58.12,94,100,4.61,US,1690197296
195,puerto baquerizo moreno,-0.9,-89.6,76.14,83,80,10.31,EC,1690197296
196,lebu,-37.6167,-73.65,46.45,87,75,12.41,CL,1690197296
197,fale old settlement,-9.3852,-171.2468,83.7,75,5,15.37,TK,1690197296
198,city of balikpapan,-1.242,116.8942,82.35,83,20,3.44,ID,1690197296
199,dalbandin,28.8947,64.4101,78.85,77,99,16.02,PK,1690197296
200,narvik,68.4384,17.4272,65.37,80,100,2.84,NO,1690197296
201,lompoc,34.6391,-120.4579,59.14,97,100,0.0,US,1690197296
202,mahomet,40.1953,-88.4042,68.07,96,18,1.01,US,1690197018
203,mjolby,58.326,15.1237,62.89,79,97,9.75,SE,1690197296
204,inarajan village,13.2736,144.7484,82.54,81,100,13.62,GU,1690197296
205,san pedro pochutla,15.7333,-96.4667,75.7,85,100,3.27,MX,1690197297
206,basoda,23.85,77.9333,89.78,62,82,4.63,IN,1690197297
207,sarzedo,-20.0353,-44.1447,66.34,80,47,4.79,BR,1690197297
208,labrador city,52.9463,-66.9114,62.51,88,100,2.3,CA,1690197297
209,machakos,-1.5167,37.2667,69.75,44,84,7.63,KE,1690197297
210,hanceville,34.0607,-86.7675,69.17,86,0,3.31,US,1690197297
211,wamba,8.9333,8.6,83.32,68,94,4.68,NG,1690197297
212,margate,51.3813,1.3862,66.9,81,88,8.99,GB,1690197297
213,montevideo,-34.8335,-56.1674,50.02,71,75,11.5,UY,1690197298
214,brookings,44.3114,-96.7984,64.26,100,1,7.09,US,1690197228
215,nemuro,43.3236,145.575,61.25,100,100,9.84,JP,1690197298
216,tura,25.5198,90.2201,84.04,78,96,3.51,IN,1690197298
217,molde,62.7375,7.1591,67.71,67,75,5.75,NO,1690197298
218,chulucanas,-5.0925,-80.1625,67.03,85,2,2.17,PE,1690197298
219,puerto ayacucho,5.6639,-67.6236,72.5,97,72,3.69,VE,1690197298
220,bakanas,44.8081,76.2772,100.9,8,0,10.58,KZ,1690197298
221,mariehamn,60.0973,19.9348,64.26,72,20,10.36,AX,1690197298
222,val-d'or,48.1002,-77.7828,60.89,88,75,4.61,CA,1690197278
223,sandnessjoen,66.0217,12.6316,59.52,82,75,3.44,NO,1690197298
224,tolanaro,-25.0319,46.9987,74.7,65,0,6.53,MG,1690197298
225,yung shue wan,22.2333,114.1167,89.67,75,100,9.01,HK,1690197299
226,olyokminsk,60.3736,120.4264,79.88,47,59,6.53,RU,1690197299
227,magadan,59.5667,150.8,60.53,65,0,6.78,RU,1690197299
228,piti village,13.4626,144.6933,82.45,89,0,3.44,GU,1690197299
229,antofagasta,-23.65,-70.4,63.68,85,78,2.95,CL,1690197043
230,omaha,41.2586,-95.9378,70.23,91,75,18.41,US,1690197114
231,skovorodino,53.9833,123.9167,69.37,74,100,5.12,RU,1690197299
232,taltal,-25.4,-70.4833,57.36,84,75,1.52,CL,1690197299
233,flying fish cove,-10.4217,105.6791,76.68,88,75,10.36,CX,1690197299
234,jogindarnagar,31.9833,76.7667,82.04,76,65,3.78,IN,1690197299
235,auki,-8.7676,160.7034,76.19,90,85,4.21,SB,1690197300
236,al bardiyah,31.7561,25.0865,92.62,48,0,13.31,LY,1690197300
237,san patricio,28.017,-97.5169,84.06,86,95,4.27,US,1690197300
238,twon-brass,4.3151,6.2418,75.78,93,100,14.41,NG,1690197300
239,castillos,-34.1667,-53.8333,48.88,85,100,8.95,UY,1690197300
240,nevesinje,43.2586,18.1133,88.66,43,34,6.35,BA,1690197300
241,okha,53.5739,142.9478,61.84,67,94,4.27,RU,1690197300
242,saudarkrokur,65.7461,-19.6394,49.68,95,100,1.97,IS,1690197301
243,gunjur,13.2019,-16.7339,84.27,79,40,0.0,GM,1690197302
244,lorengau,-2.0226,147.2712,80.24,79,91,5.99,PG,1690197302
245,mawlamyinegyunn,16.3833,95.2667,84.47,74,73,11.07,MM,1690197302
246,santiago de cao,-7.9589,-79.2392,68.13,83,71,5.75,PE,1690197304
247,ursulo galvan,22.7333,-98.3,80.2,87,91,2.68,MX,1690197304
248,vostochnyy,55.8167,37.8667,62.53,96,100,10.63,RU,1690197304
249,highland,34.1283,-117.2086,84.9,61,0,0.0,US,1690197304
250,whitehorse,60.7161,-135.0538,54.37,86,100,12.66,CA,1690197305
251,kruisfontein,-34.0033,24.7314,60.89,46,12,13.71,ZA,1690197305
252,aqadyr,48.2553,72.8483,91.13,17,20,14.25,KZ,1690197305
253,san andres,12.5847,-81.7006,84.22,84,20,14.97,CO,1690197305
254,saint-flour,45.0833,3.0,67.91,62,100,7.18,FR,1690197305
255,arizona city,32.7559,-111.671,89.76,42,100,7.61,US,1690197306
256,macau,22.2006,113.5461,85.8,79,20,9.22,MO,1690197306
257,kavieng,-2.5744,150.7967,81.36,79,79,3.89,PG,1690197306
258,as sulayyil,20.4607,45.5779,111.45,7,51,3.87,SA,1690197306
259,ha'il,27.5219,41.6907,105.82,9,0,2.3,SA,1690197306
260,ebaye,8.7748,167.7392,84.22,79,0,12.66,MH,1690197307
261,gadzhiyevo,69.2551,33.3362,50.25,94,100,13.8,RU,1690197307
262,immokalee,26.4187,-81.4173,82.31,100,0,0.0,US,1690197307
263,monrovia,6.3005,-10.7969,82.17,84,80,6.93,LR,1690197307
264,fukuecho,32.6881,128.8419,81.12,83,5,7.14,JP,1690197307
265,pandan,14.0453,124.1694,80.11,87,100,22.77,PH,1690197307
266,hennigsdorf,52.636,13.2042,84.18,46,100,8.01,DE,1690197186
267,murzuq,25.9155,13.9184,104.29,10,58,14.25,LY,1690197308
268,richards bay,-28.783,32.0377,61.03,84,100,12.82,ZA,1690197308
269,cam ranh,11.9214,109.1591,78.76,94,75,4.61,VN,1690197308
270,yuzhno-kurilsk,44.0306,145.8556,61.54,99,100,6.91,RU,1690197308
271,mandra,38.0667,23.5,99.91,24,20,5.75,GR,1690197308
272,alo,7.4178,6.7371,74.64,96,100,1.59,NG,1690197308
273,saint-pierre,-21.3393,55.4781,76.68,73,0,23.02,RE,1690197309
274,ketchikan,55.3422,-131.6461,55.87,94,0,11.5,US,1690197309
275,cidreira,-30.1811,-50.2056,62.8,88,99,7.56,BR,1690197105
276,egilsstadir,65.2653,-14.3948,48.11,93,75,9.22,IS,1690197309
277,hithadhoo,-0.6,73.0833,83.39,77,96,13.35,MV,1690197309
278,zeya,53.75,127.2667,70.16,68,100,4.25,RU,1690197309
279,forio,40.7342,13.8646,98.78,75,1,12.26,IT,1690197309
280,maitum,6.0392,124.4986,78.89,82,92,3.27,PH,1690197310
281,zapolyarnyy,69.4154,30.8136,47.48,96,100,9.62,RU,1690197310
282,porto novo,6.4965,2.6036,76.59,86,100,6.51,BJ,1690197310
283,sao joao da barra,-21.6403,-41.0511,71.69,79,65,9.19,BR,1690197310
284,forbes,-33.3833,148.0167,45.91,82,1,6.91,AU,1690197310
285,fort stockton,30.894,-102.8793,77.16,60,0,1.01,US,1690197311
286,pontes e lacerda,-15.2261,-59.3353,65.01,51,0,2.13,BR,1690197311
287,katerini,40.2719,22.5025,92.71,68,0,14.76,GR,1690197311
288,madisonville,37.3281,-87.4989,70.88,89,0,6.42,US,1690197164
289,chai badan,15.2,101.1333,83.7,78,100,5.44,TH,1690197312
290,el bauga,18.262,33.9081,108.1,8,46,8.93,SD,1690197312
291,joinville,-26.3044,-48.8456,58.91,100,100,0.0,BR,1690197312
292,caleta de carquin,-11.0925,-77.6267,65.7,86,59,8.21,PE,1690197312
293,franklin,39.9667,-83.0166,64.04,97,0,3.44,US,1690197313
294,homestead meadows south,31.811,-106.1643,84.36,40,2,4.76,US,1690197314
295,oriximina,-1.7656,-55.8661,79.72,61,75,2.19,BR,1690197314
296,kuanda,56.3161,116.0806,77.2,58,41,1.01,RU,1690197314
297,kangding,30.0513,101.9603,63.75,97,100,5.3,CN,1690197314
298,aykhal,66.0,111.5,64.51,69,80,11.01,RU,1690197314
299,sinan,34.8262,126.1086,75.02,94,97,15.41,KR,1690197172
300,dunedin,-45.8742,170.5036,48.79,95,47,3.0,NZ,1690197267
301,new norfolk,-42.7826,147.0587,53.1,77,81,5.35,AU,1690197315
302,kapa'a,22.0752,-159.319,79.12,89,100,16.11,US,1690197140
303,novo aripuana,-5.1206,-60.3797,70.97,66,1,1.7,BR,1690197315
304,prince rupert,54.3161,-130.3201,56.89,98,0,10.36,CA,1690197315
305,dryden,49.7833,-92.7503,55.69,76,0,0.0,CA,1690197315
306,san antonio de pale,-1.4014,5.6325,73.18,81,95,9.24,GQ,1690197234
307,chonchi,-42.6128,-73.8092,41.13,96,100,8.66,CL,1690197315
308,the pas,53.8251,-101.2541,53.62,87,0,2.3,CA,1690197316
309,pedregal,8.3667,-82.4333,80.2,92,40,3.0,PA,1690197316
310,mejit,10.2753,170.8646,82.85,76,36,19.44,MH,1690197316
311,bilibino,68.0546,166.4372,51.64,87,100,3.13,RU,1690197316
312,lauro de freitas,-12.8944,-38.3272,80.62,69,40,12.66,BR,1690197300
313,ahar,38.4774,47.0699,87.66,28,1,13.76,IR,1690197316
314,roma,43.2128,-75.4557,64.63,95,0,4.61,US,1690197228
315,atherton,53.5237,-2.4935,64.47,69,37,3.0,GB,1690197317
316,wunsiedel,50.0333,12.0167,74.7,75,98,8.99,DE,1690197317
317,iquitos,-3.7481,-73.2472,73.44,94,75,0.0,PE,1690197270
318,buala,-8.145,159.5921,78.53,87,100,6.26,SB,1690197317
319,porto franco,-6.3383,-47.3992,76.95,37,31,4.88,BR,1690197317
320,kalianget,-7.05,113.9333,79.23,76,4,9.17,ID,1690197317
321,revelstoke,50.9832,-118.2023,59.02,77,0,0.0,CA,1690197317
322,kalymnos,36.95,26.9833,98.13,30,0,21.85,GR,1690197317
323,camarinas,43.1311,-9.1817,65.93,74,75,8.14,ES,1690197318
324,kone,-21.0595,164.8658,62.71,76,41,4.72,NC,1690197318
325,tawau,4.2498,117.8871,80.73,84,98,5.99,MY,1690197318
326,guerrero negro,27.9769,-114.0611,67.19,83,99,7.78,MX,1690197318
327,bojnurd,37.4747,57.329,93.74,12,0,15.08,IR,1690197318
328,plastun,44.7561,136.2939,66.88,99,100,1.52,RU,1690197318
329,jiuquan,39.7432,98.5174,95.09,10,5,7.61,CN,1690197318
330,revda,56.801,59.9303,70.84,51,98,5.57,RU,1690197319
331,jinchang,38.4953,102.1739,92.46,12,55,15.3,CN,1690197319
332,klaksvik,62.2266,-6.589,49.12,84,91,9.89,FO,1690197319
333,barra do garcas,-15.89,-52.2567,68.45,48,0,1.81,BR,1690197319
334,hamilton,39.1834,-84.5333,67.77,91,20,5.75,US,1690197319
335,rondonopolis,-16.4708,-54.6356,67.95,51,0,2.08,BR,1690197319
336,motueka,-41.1333,173.0167,49.1,91,53,4.14,NZ,1690197320
337,george town,5.4112,100.3354,89.55,66,20,6.91,MY,1690197313
338,ola,59.5833,151.2833,61.14,65,2,6.38,RU,1690197320
339,kailua-kona,19.6406,-155.9956,83.59,97,100,1.01,US,1690197208
340,playa del ingles,27.7567,-15.5787,78.55,69,13,5.99,ES,1690197309
341,noumea,-22.2763,166.4572,58.98,74,10,6.73,NC,1690197050
342,dhuusamarreeb,5.535,46.3861,94.55,29,40,25.21,SO,1690197320
343,krasavino,60.9614,46.4814,61.39,92,100,5.55,RU,1690197321
344,riti,7.9167,9.6167,85.08,64,90,8.86,NG,1690197321
345,francistown,-21.17,27.5079,80.89,14,32,3.98,BW,1690197321
346,tukums,56.9669,23.1553,60.15,83,97,2.04,LV,1690197321
347,nanao,37.05,136.9667,84.31,82,8,3.42,JP,1690197321
348,la ronge,55.1001,-105.2842,53.85,94,40,2.3,CA,1690197321
349,mersing,2.4312,103.8405,87.71,66,20,6.91,MY,1690197321
350,crane,31.3974,-102.3501,77.59,59,0,10.11,US,1690197322
351,kolwezi,-10.7148,25.4667,80.31,24,0,6.17,CD,1690197322
352,panacan,9.2463,118.4082,80.31,81,100,7.49,PH,1690197322
353,sur,22.5667,59.5289,82.62,72,100,4.29,OM,1690197322
354,tazovsky,67.4667,78.7,66.36,68,12,5.91,RU,1690197322
355,rabaul,-4.1967,152.1721,79.88,80,51,16.24,PG,1690197322
356,saldanha,-33.0117,17.9442,55.56,53,3,8.52,ZA,1690197323
357,buncrana,55.1333,-7.45,58.77,73,100,10.83,IE,1690197323
358,tasqala,51.1167,50.3167,79.57,45,98,6.35,KZ,1690197323
359,taulaga,-11.0553,-171.0883,83.34,75,9,15.21,AS,1690197323
360,brunico,46.7958,11.9364,67.95,73,100,0.36,IT,1690197323
361,boa vista,2.8197,-60.6733,75.18,94,75,1.14,BR,1690197323
362,saint-joseph,-21.3667,55.6167,75.58,78,22,10.83,RE,1690197323
363,balsas,-7.5325,-46.0356,75.54,47,43,8.32,BR,1690197324
364,la passe,45.5549,-0.8967,77.23,59,30,16.87,FR,1690197324
365,aginskoye,51.1,114.53,73.89,49,100,5.59,RU,1690197324
366,belo sur tsiribihina,-19.7,44.55,85.14,39,0,8.81,MG,1690197324
367,ta`u,-14.2336,-169.5144,79.25,73,57,14.07,AS,1690197324
368,filey,54.21,-0.2892,60.78,80,39,5.01,GB,1690197324
369,celestun,20.8667,-90.4,76.32,87,73,10.51,MX,1690197325
370,manavalakurichi,8.1333,77.3,82.56,74,100,16.37,IN,1690197325
371,dolbeau-mistassini,48.8763,-72.212,65.05,79,21,4.54,CA,1690197325
372,sinabang,2.4803,96.3801,82.92,72,96,3.53,ID,1690197325
373,lospalos,-8.5186,127.0025,67.6,74,92,9.8,TL,1690197325
374,al wakrah,24.85,51.3333,111.16,19,61,14.2,QA,1690197325
375,tevriz,57.509,72.4042,68.25,84,63,5.68,RU,1690197325
376,buenaventura,3.8801,-77.0312,76.39,94,24,1.72,CO,1690197325
377,ancud,-41.8697,-73.8203,42.26,91,100,16.89,CL,1690197326
378,mana,5.6592,-53.7767,77.05,87,70,7.72,GF,1690197326
379,cancale,48.676,-1.8523,68.25,73,75,8.05,FR,1690197326
380,mangaratiba,-22.9597,-44.0406,70.66,78,1,3.83,BR,1690197326
381,karnobat,42.65,26.9833,80.44,23,0,3.67,BG,1690197327
382,st. john's,47.5649,-52.7093,72.95,98,100,14.97,CA,1690197234
383,northam,51.0333,-4.2167,59.61,89,100,13.11,GB,1690197327
384,alibag,18.6411,72.8792,82.47,87,88,18.57,IN,1690197327
385,jalasjarvi,62.5,22.75,64.09,87,99,5.97,FI,1690197327
386,kochubey,44.3861,46.5825,81.1,61,89,6.26,RU,1690197327
387,kasane,-17.8167,25.15,84.74,15,5,4.36,BW,1690197327
388,zhoukou,33.6333,114.6333,90.46,57,99,6.31,CN,1690197327
389,mount carmel,38.4109,-87.7614,73.2,81,25,7.45,US,1690197328
390,zaozersk,69.4005,32.4476,50.14,95,100,13.33,RU,1690197328
391,nizhnesortymskiy,62.4397,71.7603,80.33,36,84,5.73,RU,1690197328
392,santa ana,33.7456,-117.8678,72.12,89,0,0.0,US,1690197328
393,kijang,35.2442,129.2139,76.73,86,11,8.52,KR,1690197328
394,four corners,28.3329,-81.6474,78.06,96,47,3.91,US,1690197328
395,zalingei,12.9096,23.4741,89.71,39,69,8.12,SD,1690197328
396,portland,45.5234,-122.6762,61.61,82,0,1.01,US,1690197043
397,iranshahr,27.2025,60.6848,108.79,12,100,13.24,IR,1690197328
398,aleksandrovsk-sakhalinskiy,50.8975,142.1561,62.62,94,58,2.42,RU,1690197329
399,bondoukou,8.0333,-2.8,72.23,96,100,4.03,CI,1690197329
400,guarapari,-20.6667,-40.4975,67.89,84,8,3.53,BR,1690197035
401,cherlak,54.155,74.8055,78.3,42,1,15.95,RU,1690197329
402,coquimbo,-29.9533,-71.3436,49.73,100,75,6.91,CL,1690197315
403,keflavik,64.0049,-22.5624,57.11,88,100,10.36,IS,1690197329
404,tadine,-21.55,167.8833,66.36,60,69,6.91,NC,1690197329
405,bahia honda,22.9036,-83.1592,77.99,86,8,3.78,CU,1690197330
406,luderitz,-26.6481,15.1594,66.83,39,92,18.48,NA,1690197330
407,bubaque,11.2833,-15.8333,80.89,77,100,10.07,GW,1690197330
408,ponta delgada,37.7333,-25.6667,78.49,73,75,9.22,PT,1690197330
409,tanumah,27.1,44.1333,109.63,6,58,2.59,SA,1690197330
410,burang,30.25,81.1667,60.33,61,81,7.11,CN,1690197330
411,forshaga,59.5254,13.4813,63.12,77,75,6.91,SE,1690197330
412,san rafael del sur,11.8485,-86.4384,76.17,76,89,11.54,NI,1690197330
413,glenvale,-27.5648,151.9076,49.87,72,40,1.01,AU,1690197331
414,kroya,-7.6331,109.2461,75.24,83,57,4.25,ID,1690197331
415,severo-yeniseyskiy,60.3725,93.0408,61.66,91,93,1.54,RU,1690197331
416,selfoss,63.9331,-20.9971,63.05,72,84,5.95,IS,1690197331
417,berdigestyakh,62.0989,126.6992,75.45,61,63,5.91,RU,1690197331
418,craig,40.5153,-107.5464,56.82,82,0,4.61,US,1690197219
419,sitka,57.0531,-135.33,53.49,87,75,3.44,US,1690197331
420,horta,38.5333,-28.6333,75.02,84,75,3.44,PT,1690197331
421,murashi,59.3999,48.9615,61.66,91,92,7.49,RU,1690197332
422,severobaykal'sk,55.65,109.3167,63.18,60,37,4.43,RU,1690197332
423,turpan,42.9333,89.1667,103.6,18,41,25.08,CN,1690197332
424,al 'aziziyah,32.9058,45.0616,116.11,6,0,14.27,IQ,1690197332
425,balqash,46.8481,74.995,97.39,11,0,11.18,KZ,1690197332
426,salair,54.2312,85.7972,72.72,57,96,7.85,RU,1690197332
427,juye,35.3947,116.0883,90.91,53,77,7.87,CN,1690197332
428,al muwayh,22.4333,41.7583,107.33,6,49,16.67,SA,1690197332
429,ar ruways,24.1103,52.7306,97.9,55,99,11.32,AE,1690197333
430,cottonwood,34.7392,-112.0099,76.37,54,85,1.01,US,1690197253
431,chernyshevskiy,63.0128,112.4714,75.58,54,53,4.56,RU,1690197333
432,bologoye,57.8799,34.1068,62.53,74,92,8.34,RU,1690197334
433,sarikamis,40.3381,42.5731,73.17,51,33,8.84,TR,1690197334
434,norilsk,69.3535,88.2027,70.43,53,100,7.99,RU,1690197304
435,geraldton,-28.7667,114.6,61.21,63,13,4.61,AU,1690197144
436,weno,7.4515,151.8468,79.59,87,100,12.62,FM,1690197334
437,meadow lakes,61.6247,-149.6011,56.55,94,0,0.0,US,1690197335
438,juneau,58.3019,-134.4197,54.21,100,75,0.0,US,1690197335
439,tralee,52.2704,-9.7026,62.85,72,20,8.05,IE,1690197335
440,el granada,37.5027,-122.4694,60.62,89,100,11.5,US,1690197335
441,vershino-darasunskiy,52.35,115.5167,65.73,57,71,0.56,RU,1690197335
442,nadym,65.5333,72.5167,76.6,51,63,3.06,RU,1690197335
443,maubin,16.7333,95.65,84.15,75,87,9.6,MM,1690197335
444,formosa do rio preto,-11.0483,-45.1931,71.11,62,14,9.28,BR,1690197336
445,boguchany,58.3814,97.4531,67.59,87,67,13.87,RU,1690197336
446,meulaboh,4.1363,96.1285,83.1,70,42,4.9,ID,1690197336
447,punta del este,-34.9667,-54.95,50.88,78,100,8.05,UY,1690197336
448,thurso,58.5927,-3.5259,55.65,68,100,16.64,GB,1690197337
449,mendoza,-32.8908,-68.8272,42.33,49,20,4.61,AR,1690197224
450,swellendam,-34.0226,20.4417,55.96,51,3,5.01,ZA,1690197337
451,priargunsk,50.3691,119.1012,73.33,68,24,5.99,RU,1690197337
452,port alberni,49.2413,-124.8028,62.44,89,100,1.99,CA,1690197337
453,micheweni,-4.9667,39.8333,80.38,68,55,13.73,TZ,1690197337
454,falkenberg,56.9055,12.4912,64.26,100,92,20.51,SE,1690197337
455,patacamaya,-17.2333,-67.9167,37.53,73,8,6.38,BO,1690197338
456,batticaloa,7.7102,81.6924,88.84,54,99,17.38,LK,1690197338
457,donghai,22.9459,115.642,83.21,80,87,5.84,CN,1690197338
458,kargasok,59.0556,80.8572,75.02,61,100,5.84,RU,1690197338
459,beyneu,45.3167,55.2,99.39,17,52,4.97,KZ,1690197338
460,laguna,38.421,-121.4238,71.08,71,0,8.05,US,1690197338
461,darwin,-12.4611,130.8418,69.78,24,0,6.91,AU,1690197338
462,monjaras,13.2006,-87.3742,76.96,76,88,5.03,HN,1690197338
463,yerofey pavlovich,53.9667,121.9667,69.66,65,97,1.86,RU,1690197338
464,seydi,39.4816,62.9137,107.98,9,0,21.23,TM,1690197338
465,holualoa,19.6228,-155.9522,79.86,94,100,1.01,US,1690197339
466,bay roberts,47.5999,-53.2648,73.31,99,100,1.99,CA,1690197339
467,waverly,42.7392,-84.6208,60.35,95,0,0.0,US,1690197285
468,dondo,-19.6094,34.7431,85.51,47,0,3.47,MZ,1690197339
469,jaguariaiva,-24.2511,-49.7058,58.48,76,0,2.48,BR,1690197339
470,destin,30.3935,-86.4958,77.99,87,0,5.75,US,1690197078
471,peace river,56.2501,-117.286,63.66,82,100,4.61,CA,1690197340
472,morant bay,17.8815,-76.4093,82.02,86,12,8.41,JM,1690197340
473,dampit,-8.2116,112.7493,69.06,96,53,3.98,ID,1690197340
474,andilamena,-17.0167,48.5833,70.45,61,34,9.46,MG,1690197340
475,newman,37.3138,-121.0208,72.28,75,3,4.34,US,1690197340
476,buka,40.8108,69.1986,108.72,10,28,5.68,UZ,1690197340
477,manokwari,-0.8667,134.0833,80.6,81,91,7.99,ID,1690197083
478,gnesta,59.0475,17.3119,70.02,65,91,8.81,SE,1690197345
479,ujae,8.9322,165.7642,83.64,79,84,17.09,MH,1690197345
480,alaghsas,17.0187,8.0168,93.09,52,96,16.11,NE,1690197346
481,el calafate,-50.3408,-72.2768,19.33,83,100,1.68,AR,1690197346
482,freetown,8.484,-13.2299,80.31,78,75,5.75,SL,1690197346
483,korla,41.7597,86.1469,99.72,15,79,9.8,CN,1690197346
484,aur,8.1499,171.1687,82.9,80,31,18.97,MH,1690197346
485,show low,34.2542,-110.0298,70.14,58,0,0.0,US,1690197347
486,kudahuvadhoo,2.6708,72.8944,83.59,74,89,7.31,MV,1690197347
487,shimoda,34.6667,138.95,78.1,85,2,5.68,JP,1690197347
488,la'ie,21.6477,-157.9253,78.76,84,42,13.04,US,1690197347
489,parambu,-6.2111,-40.6944,73.22,59,7,10.54,BR,1690197347
490,elliot,-31.3333,27.85,53.38,30,29,5.66,ZA,1690197347
491,carandai,-20.9536,-43.8064,60.84,96,76,4.47,BR,1690197347
492,dongcun,36.7767,121.1597,79.14,88,3,7.81,CN,1690197347
493,mochudi,-24.4167,26.15,81.19,19,73,6.64,BW,1690197348
494,djibo,14.1022,-1.6306,82.83,65,100,15.55,BF,1690197348
495,tara,56.8944,74.371,72.03,70,43,6.53,RU,1690197348
496,scottsboro,34.6723,-86.0341,70.41,90,0,2.82,US,1690197348
497,fort st. john,56.2499,-120.8529,60.69,59,75,0.0,CA,1690197348
498,kalat,29.0225,66.5916,77.9,51,100,7.29,PK,1690197348
499,ciudad lazaro cardenas,17.9583,-102.2,77.95,87,100,5.84,MX,1690197348
500,kerikeri,-35.2268,173.9474,51.91,91,10,4.41,NZ,1690197349
501,white hall,34.274,-92.091,71.31,88,0,0.0,US,1690197349
502,karangampel,-6.4622,108.4519,80.6,76,45,6.2,ID,1690197349
503,whitby,54.4877,-0.615,60.06,86,52,8.01,GB,1690197349
504,maues,-3.3836,-57.7186,72.73,63,0,2.15,BR,1690197349
505,tangalle,6.024,80.7911,91.56,68,61,16.02,LK,1690197349
506,madera,37.1666,-119.8343,86.23,43,94,1.57,US,1690197341
507,tazacorte,28.629,-17.9293,77.97,66,40,14.97,ES,1690197349
508,urangan,-25.3,152.9,65.07,75,97,20.94,AU,1690197349
509,nova xavantina,-14.6667,-52.35,69.04,48,0,2.62,BR,1690197140
510,aljezur,37.3191,-8.8033,73.94,70,23,13.18,PT,1690197350
511,ulsteinvik,62.3432,5.8487,67.91,81,90,8.01,NO,1690197350
512,ati,13.2154,18.3353,94.14,42,38,7.38,TD,1690197350
513,ambon,-3.6954,128.1814,82.24,92,40,10.36,ID,1690197350
514,corner brook,48.9667,-57.9484,73.56,99,100,1.39,CA,1690197350
515,sirte,31.2089,16.5887,91.89,45,0,8.88,LY,1690197350
516,itoman,26.1247,127.6694,86.4,77,40,12.66,JP,1690197350
517,orkney,-26.9802,26.6727,66.24,12,100,10.78,ZA,1690197350
518,trinidad,-14.8333,-64.9,67.98,94,20,0.0,BO,1690197351
519,ciudad guayana,8.3533,-62.6528,78.53,93,91,2.17,VE,1690197351
520,jokioinen,60.8016,23.48,69.89,60,45,8.37,FI,1690197351
521,shendi,16.6915,33.4341,106.21,16,78,12.1,SD,1690197351
522,namibe,-15.1961,12.1522,73.71,59,46,8.72,AO,1690197351
523,muisne,0.6,-80.0333,77.58,90,100,7.92,EC,1690197351
524,nantucket,41.2835,-70.0995,78.85,90,55,7.27,US,1690197351
525,arno,60.1167,18.6333,69.57,50,7,8.21,SE,1690197352
526,cascais,38.6979,-9.4215,76.86,54,20,25.01,PT,1690197249
527,dili,-8.5586,125.5736,76.37,70,93,7.92,TL,1690197352
528,floro,61.5996,5.0328,69.87,59,40,11.5,NO,1690197352
529,qusmuryn,52.4503,64.6311,80.29,29,81,5.01,KZ,1690197352
530,yujing,23.1249,120.4614,83.62,75,69,4.32,TW,1690197352
531,lucija,45.5053,13.6024,86.05,65,75,10.36,SI,1690197352
532,wuhai,39.6647,106.8122,97.21,11,8,4.27,CN,1690197352
533,alto araguaia,-17.3147,-53.2153,64.89,51,0,3.94,BR,1690197352
534,warrnambool,-38.3833,142.4833,53.76,80,100,8.66,AU,1690197150
535,robertsport,6.7533,-11.3686,79.81,78,68,6.85,LR,1690197353
536,murmansk,68.0,34.0,51.55,96,100,4.61,RU,1690197353
537,sol'-iletsk,51.1631,54.9918,76.1,44,98,3.44,RU,1690197353
538,sarangani,5.4033,125.4636,81.48,81,77,15.82,PH,1690197353
539,hoemul-li,41.4339,129.67,72.39,96,100,2.04,KP,1690197353
540,karumbakkam,12.6992,80.0933,85.78,68,100,12.44,IN,1690197353
541,khovd,48.0056,91.6419,78.28,18,78,12.08,MN,1690197353
542,gowurdak,37.8124,66.0466,104.97,9,0,5.35,TM,1690197353
543,fuding,27.3273,120.214,79.45,91,98,2.28,CN,1690197354
544,amphoe sikhiu,14.8994,101.7083,86.09,100,100,5.17,TH,1690197354
545,forster,-32.1667,152.5167,49.37,100,13,4.85,AU,1690197354
546,susuman,62.7833,148.1667,54.46,64,65,4.5,RU,1690197354
547,swan hill,-35.3378,143.5544,46.9,84,3,7.23,AU,1690197270
548,angaur state,6.906,134.13,83.25,82,95,17.92,PW,1690197354
549,turochak,52.2576,87.1224,76.46,48,95,3.91,RU,1690197354
550,howard springs,-12.497,131.047,69.71,21,7,7.58,AU,1690197355
551,polyarnyy,69.1989,33.4478,50.9,94,100,13.24,RU,1690197355
552,sijunjung,-0.6876,100.9537,78.6,75,91,3.76,ID,1690197355
553,poronaysk,49.2167,143.1167,58.23,99,98,5.66,RU,1690197355
554,motygino,58.1831,94.7592,67.68,87,68,2.33,RU,1690197355
